stop_id,stop_name,stop_desc,stop_lat,stop_lon,zone_id,location_type,parent_station
12875,Rond Canta,,47.17232,27.53767,,0,
12876,Sergent Grigore Ioan,,47.17325,27.5456,,0,
12877,Moara 1 Mai,,47.17347,27.55037,,0,
12878,Bariera Tigarete,,47.17104,27.56136,,0,
12879,Billa,,47.16747,27.56873,,0,
12880,Gara,,47.1656016941486,27.5711837419853,,0,
12881,Subpasaj ACB,,47.161405459822,27.573106885849,,0,
12882,Podu de Piatra,,47.15635,27.5741,,0,
12883,Gara Internationala (Nicolina),,47.14993,27.57769,,0,
12884,Bazar,,47.14671,27.58324,,0,
12885,Piata Nicolina,,47.14659,27.59092,,0,
12886,Casa Sindicatelor,,47.14658,27.59289,,0,
12887,Frigorifer,,47.1412,27.60028,,0,
12888,PECO Bucium,,47.13542,27.60887,,0,
12889,Spitalul nr. 7,,47.13048,27.61389,,0,
12890,Centrofarm,,47.12773,27.6162,,0,
12891,Han Trei Sarmale,,47.12362,27.62232,,0,
12892,Scoala generala nr. 2,,47.12083,27.62612,,0,
12893,Plopii fara sot,,47.11894,27.62979,,0,
12894,Rond Bucium,,47.11658,27.63188,,0,
12895,Han Trei Sarmale,,47.12441,27.62122,,0,
12896,Centrofarm,,47.12788,27.61622,,0,
12897,Frigorifer (Liceul de Chimie),,47.14205,27.59928,,0,
12898,Casa Sindicatelor,,47.14533,27.59472,,0,
12899,Piata Nicolina,,47.14616,27.58942,,0,
12900,Bazar,,47.14733,27.58177,,0,
12901,Gara Internationala (Nicolina),,47.14939,27.57878,,0,
12902,Bariera Tigarete,,47.1714131409,27.5607043514,,0,
12903,Moara 1 Mai,,47.1732583748,27.5532499561,,0,
12905,Podu de Piatra,,47.15668,27.5763,,0,
12906,Pod Cantemir (Gradinita Sf. Parascheva),,47.15329,27.58194,,0,
12907,Podu Ros,,47.15027,27.58834,,0,
12908,Camine CUG,,47.13719,27.60448,,0,
12909,Depozite,,47.13692,27.60049,,0,
12910,Liceul CUG,,47.1365064587,27.5946632633,,0,
12911,Blocuri Cetatuia,,47.13546,27.58713,,0,
12912,CUG 1 (Selgros),,47.13405,27.57553,,0,
12913,CUG 1 (Selgros),,47.13364,27.57549,,0,
12914,Biserica Lipoveneasca,,47.1527267198,27.5865844497,,0,
12915,Pod Cantemir,,47.1531064808,27.5830219397,,0,
12916,Podu de Piatra,,47.1569,27.57489,,0,
12917,Gara,,47.16637,27.57039,,0,
12918,Subpasaj ACB,,47.16042,27.57301,,0,
12919,Pod Sf. Andrei,,47.15438,27.58133,,0,
12920,Pod Cantemir,,47.15353,27.58324,,0,
12921,Pod Rosu (Bloc PNL),,47.15187,27.58679,,0,
12922,Pod Rosu (Agentia BRD),,47.15088,27.58941,,0,
12923,Tesatura,,47.149,27.5953,,0,
12924,Moldoplast,,47.14818,27.60091,,0,
12925,Baza 3,,47.14707,27.60881,,0,
12926,Baza 3,,47.14661,27.61012,,0,
12927,Podu Ros (Complex Mercur),,47.1521,27.58649,,0,
12928,Pod Cantemir,,47.1533395892,27.5838475236,,0,
12929,Moara 1 Mai,,47.17343,27.55228,,0,
12930,Triumf,,47.1804,27.56734,,0,
12931,Universitate,,47.1748701669,27.5720211276,,0,
12932,Piata Eminescu,,47.1688968096557,27.5766688594208,,0,
12933,Piata Unirii,,47.1653226849,27.5814238796,,0,
12934,Filarmonica (Teatrul National),,47.16407,27.5854,,0,
12935,Targu Cucu,,47.16419,27.5909,,0,
12936,Bucsinescu,,47.1586956944,27.6004970679,,0,
12937,Tudor Vladimirescu,,47.15637,27.60375,,0,
12938,Baumax,,47.14897,27.60241,,0,
12939,CFS,,47.14608,27.61584,,0,
12940,Tepro,,47.14565,27.61882,,0,
12941,CFS 2,,47.14827,27.62051,,0,
12942,Pod Metalurgie,,47.15033,27.62112,,0,
12943,Vasile Lupu,,47.1531141416,27.6222664127,,0,
12944,Tatarasi Sud,,47.15647,27.62381,,0,
12945,Flora,,47.15882,27.62043,,0,
12946,Doctor Savini,,47.16,27.6145,,0,
12947,Ateneu,,47.16243,27.60583,,0,
12948,Padurii,,47.1632094618,27.5973508367,,0,
12949,Targu Cucu,,47.16415,27.5901,,0,
12950,Piata Unirii,,47.16561,27.58067,,0,
12951,Universitate,,47.1755542521,27.5716456184,,0,
12952,Triumf,,47.1815195684,27.5668165693,,0,
12953,Baumax,,47.14994,27.60289,,0,
12954,Tudor Vladimirescu,,47.15605,27.60384,,0,
12955,Bucsinescu,,47.1590309118,27.599703134,,0,
12956,Vointa,,47.16815,27.57243,,0,
12957,Billa,,47.16809,27.56835,,0,
12958,Columnei,,47.16678,27.54365,,0,
12959,Zimbru,,47.16682,27.55565,,0,
12960,Minerva,,47.16337,27.56456,,0,
12961,Familial,,47.16182,27.56725,,0,
12962,Piata ACB,,47.16001,27.57034,,0,
12963,Mircea cel Batran,,47.15601,27.57032,,0,
12964,Policlina Recuperare,,47.15166,27.57257,,0,
12965,Spitalul de Recuperare,,47.14951,27.57508,,0,
12966,Gara Nicolina,,47.1469559155,27.579825283,,0,
12967,Pod Nicolina,,47.14454,27.58356,,0,
12968,Bariera Nicolina,,47.1392,27.58496,,0,
12969,Frumoasa,,47.13644,27.58217,,0,
12970,Piata CUG (Sudului),,47.13497,27.57756,,0,
12971,CUG 1 (Selgros),,47.13351,27.57207,,0,
12972,Biserica Inaltarea Domnului,,47.12876,27.5687,,0,
12973,CUG 2 (Tehnopolis),,47.12348,27.56759,,0,
12974,Rond Dacia,,47.16854,27.54116,,0,
12975,Bicaz,,47.16674,27.5512,,0,
12976,Biserica Inaltarea Domnului,,47.12927,27.5693,,0,
12977,Otelarie,,47.1165,27.56242,,0,
12978,Horpaz,,47.1103,27.55913,,0,
12979,Sere,,47.10398,27.55976,,0,
12980,La castele,,47.10023,27.55962,,0,
12981,Cartier Astoria,,47.0969844429,27.5589276561,,0,
12982,Blocuri Ciurea,,47.09671,27.56146,,0,
12983,Blocuri Ciurea,,47.09649,27.56284,,0,
12984,Sere,,47.10485,27.55949,,0,
12985,Baza naut,,47.11408,27.56095,,0,
12986,Bariera Nicolina,,47.13993,27.58548,,0,
12987,Pod Nicolina,,47.14474,27.58303,,0,
12988,Gara Nicolina,,47.14804,27.57841,,0,
12989,Spitalul de Recuperare,,47.1501,27.57452,,0,
12990,Mircea cel Batran,,47.15637,27.57049,,0,
12991,Piata ACB,,47.16037,27.57102,,0,
12992,Pasarela CFR,,47.16463,27.56558,,0,
12993,Tigarete,,47.16825,27.55837,,0,
12994,Piata Dacia,,47.16943,27.5505,,0,
12995,Billa,,47.1694,27.5688,,0,
12996,Piata Unirii,,47.16542,27.58097,,0,
12997,Targu Cucu,,47.16476,27.59104,,0,
12998,Elena Doamna,,47.1615156129,27.5955280074,,0,
12999,Bucsinescu,,47.1582167566012,27.6015678057079,,0,
13000,Tudor Vladimirescu (Iulius Mall),,47.1555684774,27.6041362891,,0,
13001,RATP S1,,47.1538335277,27.6029673824,,0,
13002,Tesatura,,47.1507282785,27.5963466176,,0,
13003,Bicaz,,47.16669,27.55037,,0,
13004,Rond Dacia,,47.16817,27.54141,,0,
13005,Zimbru,,47.16672,27.55651,,0,
13006,Familial,,47.16215,27.56667,,0,
13007,Fabrica de ulei,,47.14405,27.62998,,0,
13008,Tehnoton,,47.14329,27.63594,,0,
13009,Rond Tutora,,47.14324,27.64328,,0,
13010,Tepro,,47.14544,27.62093,,0,
13011,CFS,,47.14617,27.61569,,0,
13012,Baza 3,,47.14683,27.61102,,0,
13013,Zimbru,,47.16647,27.55801,,0,
13014,Columnei,,47.16673,27.54497,,0,
13015,Piata Independentei,,47.16863,27.57926,,0,
13016,Triumf,,47.18101,27.56717,,0,
13018,Casa Mihail Sadoveanu,,47.1967120534349,27.5525627741222,,0,
13019,Liceul Agricol,,47.19837,27.54518,,0,
13020,IVV Copou,,47.2026053800694,27.5347099909191,,0,
13021,Breazu,,47.21634,27.52095,,0,
13022,Breazu,,47.21611,27.52085,,0,
13023,Liceul Pedagogic,,47.20074,27.53786,,0,
13024,Liceul Agricol,,47.19844,27.54382,,0,
13025,George Cosbuc,,47.18403,27.56431,,0,
13026,Bicaz,,47.16681,27.54972,,0,
13027,Zimbru,,47.16665,27.55574,,0,
13028,Liceul CUG,,47.13632,27.59368,,0,
13029,Blocuri Cetatuia,,47.13549,27.58663,,0,
13030,Frigorifer,,47.14188,27.60033,,0,
13031,Moldomobila,,47.14371,27.60421,,0,
13032,Baza 3,,47.14599,27.60905,,0,
13033,Tepro,,47.146120414,27.6196485767,,0,
13034,Tatarasi Nord,,47.16154,27.60861,,0,
13035,Stadion,,47.1864422727,27.5623104581,,0,
13036,Rond Copou,,47.19047,27.55839,,0,
13037,Piata Independentei,,47.16785,27.58069,,0,
13038,Hotel Europa,,47.16135,27.59359,,0,
13039,Moldova Mall,,47.1599,27.58862,,0,
13040,Sala Polivalenta,,47.15364,27.58727,,0,
13041,Podu Ros,,47.14964,27.58583,,0,
13042,Pod Nicolina,,47.14334,27.5806,,0,
13043,Tudor Nicolae,,47.1384,27.57725,,0,
13044,CUG 2 (Tehnopolis),,47.1246511842,27.567206026,,0,
13045,CUG 1 (Selgros),,47.13359,27.57241,,0,
13046,Tudor Nicolae,,47.13901,27.57834,,0,
13047,Moldova Mall,,47.1594,27.58803,,0,
13048,Targu Cucu (Bucegi),,47.16585,27.58943,,0,
13049,George Cosbuc,,47.1835678947,27.5649529704,,0,
13050,Stadion,,47.18575,27.56308,,0,
13051,Rond Copou,,47.19065,27.55937,,0,
13052,Spitalul Sfanta Maria,,47.160224399864,27.6106706866627,,0,
13053,Pod Nicolina,,47.14474,27.58141,,0,
13054,Pod Nicolina,,47.1446032026,27.582174025,,0,
13055,Scoala Ion Ghica,,47.151568815,27.5977510223,,0,
13056,Doctor Savini,,47.15997,27.61371,,0,
13057,Flora,,47.1591,27.61903,,0,
13058,IPA,,47.15411,27.63158,,0,
13059,SA Phoenix,,47.15195,27.63606,,0,
13060,Hotel Basarabia,,47.15211,27.64109,,0,
13061,Rond vechi Dancu,,47.15301,27.64746,,0,
13062,Blocuri Dancu,,47.15234,27.65501,,0,
13063,Rond Dancu,,47.15149,27.65942,,0,
13064,Podu de Piatra,,47.15678,27.57434,,0,
13065,Gara Internationala (Nicolina),,47.1502970606,27.5773147354,,0,
13066,Piata Nicolina,,47.14628,27.59026,,0,
13067,Padurii,,47.1632218627,27.5966985235,,0,
13068,Pod Metalurgie,,47.15199,27.6215,,0,
13069,Metro,,47.18066,27.469,,0,
13070,Antibiotice,,47.17732,27.48842,,0,
13071,Troita,,47.175,27.49895,,0,
13072,Daewoo,,47.17377,27.50629,,0,
13073,Carrefour ERA,,47.16751,27.51343,,0,
13074,Popas Pacurari,,47.17253,27.51974,,0,
13075,Pacurari,,47.17306,27.53335,,0,
13076,Peco OMV,,47.17353,27.53891,,0,
13077,Cimitirul Evreiesc,,47.17487,27.54397,,0,
13078,Moara 1 Mai,,47.17417,27.55234,,0,
13079,Petru Poni,,47.17369,27.55891,,0,
13080,Tesatura,,47.1497,27.59532,,0,
13081,Scoala Ion Ghica,,47.1522247452,27.5986608276,,0,
13082,Tudor Vladimirescu,,47.15669,27.60332,,0,
13083,Blocuri Pacurari,,47.1708,27.57168,,0,
13084,Moara 1 Mai,,47.17457,27.55027,,0,
13085,Peco OMV,,47.17353,27.53723,,0,
13086,Dedeman,,47.18136,27.47441,,0,
13087,Sectia de Politie nr. 5,,47.14294,27.60221,,0,
13088,Moldomobila,,47.14463,27.60589,,0,
13089,Tomesti,,47.1305711227,27.6986256847,,0,
13090,Blocuri Tomesti,,47.13221,27.69258,,0,
13091,Facultativa,,47.13458,27.68299,,0,
13092,IVV,,47.13585,27.67422,,0,
13093,Caretta,,47.1382,27.66803,,0,
13094,Boromir,,47.14178,27.65879,,0,
13095,Somaco,,47.14355,27.6505,,0,
13096,Rond Politie,,47.17265,27.51406,,0,
13097,Podu de Fier,,47.16678,27.59432,,0,
13098,Eternitate,,47.16525,27.60194,,0,
13099,Rond Canta,,47.17249,27.53666,,0,
13100,Padurii,,47.1630409547,27.5972596416,,0,
13101,Bucsinescu,,47.1591417994,27.6008806238,,0,
13102,Colegiul Costache Negruzzi,,47.1729,27.56883,,0,
13103,Fabrica de caramida,,47.0922,27.56643,,0,
13104,Dealul Voda,,47.0876,27.56554,,0,
13105,Baraj,,47.08259,27.5687,,0,
13106,Troita,,47.07852,27.56934,,0,
13107,Politie,,47.06593,27.57019,,0,
13108,Primarie,,47.0608,27.56786,,0,
13109,Magazin Balan,,47.0547,27.56761,,0,
13110,Magazin Ionescu,,47.04659,27.57128,,0,
13111,Scoala Generala,,47.0407421409,27.5713387737,,0,
13112,Bucsinescu,,47.1590455023,27.5999954948,,0,
13116,Elena Doamna,,47.1612296521,27.595596672,,0,
13117,RATP S1,,47.1540071711,27.6021841773,,0,
13118,Piata Eminescu,,47.1688712810099,27.5769585379963,,0,
13119,Filarmonica (Teatrul National),,47.16419,27.58547,,0,
13120,Gara,,47.1656903202954,27.5714246043548,,0,
13121,Subpasaj ACB,,47.1613864930387,27.5733450660095,,0,
13122,Columnei,,47.1666823395028,27.5443986663208,,0,
13123,Columnei,,47.16661,27.54392,,0,
13124,Minerva,,47.16338,27.56431,,0,
13125,Casa Mihail Sadoveanu,,47.1970029262754,27.5523594626789,,0,
13126,IVV Copou,,47.20291,27.53459,,0,
13127,Tigarete,,47.16738,27.55953,,0,
13128,Doctor Savini,,47.15996,27.61347,,0,
13129,Doctor Savini,,47.15993,27.61443,,0,
13130,Spitalul Sfanta Maria,,47.16007,27.60937,,0,
13131,Tatarasi Sud,,47.15614,27.62395,,0,
13132,Tatarasi Sud,,47.15627,27.62392,,0,
13133,Tatarasi Sud,,47.15637,27.62353,,0,
13134,Flora,,47.15876,27.62068,,0,
13135,Flora,,47.15915,27.61923,,0,
13955,Moldoplast,,47.14831,27.60064,,0,
13956,Tesatura,,47.14912,27.59516,,0,
13957,Pod Rosu (Agentia BRD),,47.15101,27.58916,,0,
13958,Pod Sf. Andrei,,47.1543,27.58175,,0,
13959,Podu de Piatra,,47.157,27.57491,,0,
13960,Subpasaj ACB,,47.16042,27.57315,,0,
13961,Gara,,47.16643,27.57051,,0,
13962,Bariera Tigarete,,47.1712,27.56118,,0,
13963,Bariera Tigarete,,47.17128,27.56078,,0,
13964,Sergent Grigore Ioan,,47.17325,27.54388,,0,
13965,Billa,,47.1682,27.56857,,0,
13966,Piata Unirii,,47.16553,27.58104,,0,
13971,Ateneu,,47.1625,27.6052,,0,
13977,Blocuri Dancu,,47.1523,27.65589,,0,
13979,Rond vechi Dancu,,47.153,27.64852,,0,
13980,Hotel Basarabia,,47.15243,27.64193,,0,
13981,SA Phoenix,,47.15206,27.63616,,0,
13982,IPA,,47.15385,27.63247,,0,
13994,Tehnoton,,47.14339,27.63569,,0,
13995,Fabrica de ulei,,47.14418,27.62969,,0,
14009,Vointa,,47.1682,27.57205,,0,
14011,Rond Copou,,47.19105,27.55826,,0,
14012,Rond Copou,,47.19112,27.55851,,0,
14013,Bicaz,,47.16661,27.54823,,0,
14014,Liceul Pedagogic,,47.20091,27.53799,,0,
14036,Podu de Piatra,,47.15674,27.5745,,0,
14037,Piata Nicolina,,47.14635,27.59017,,0,
14038,Tatarasi Nord,,47.16164,27.6085,,0,
14039,CFS 2,,47.14845,27.62033,,0,
14040,Podu de Fier,,47.16702,27.59451,,0,
14056,Scoala Generala,,47.04054,27.5717,,0,
14057,Magazin Ionescu,,47.04659,27.57146,,0,
14058,Magazin Balan,,47.05469,27.56783,,0,
14059,Primarie,,47.0608,27.56802,,0,
14060,Politie,,47.06591,27.57037,,0,
14061,Troita,,47.07852,27.56956,,0,
14062,Dealul Voda,,47.08759,27.5657,,0,
14064,Baraj,,47.08261,27.56899,,0,
14065,Fabrica de caramida,,47.0922,27.56661,,0,
14066,Popas Pacurari,,47.17237,27.52046,,0,
14067,Pacurari,,47.17285,27.53346,,0,
14068,Cimitirul Evreiesc,,47.17464,27.54439,,0,
14069,Petru Poni,,47.17348,27.55886,,0,
14071,Podu de Piatra,,47.15665,27.57558,,0,
14072,Pod Cantemir,,47.15254,27.58322,,0,
14073,Podu Ros,,47.15036,27.58856,,0,
14074,Depozite,,47.13677,27.60051,,0,
14075,Camine CUG,,47.13701,27.60453,,0,
14076,Daewoo,,47.1739,27.50648,,0,
14077,Troita,,47.17526,27.49855,,0,
14078,Antibiotice,,47.17745,27.48861,,0,
14079,Tatarasi Nord,,47.16128,27.60887,,0,
14080,CFS,,47.14605,27.61715,,0,
14081,Baza 3,,47.14704,27.61032,,0,
14082,CUG 1 (Selgros),,47.13389,27.57537,,0,
14083,Targu Cucu,,47.1646,27.59086,,0,
14084,Policlina Recuperare,,47.15212,27.57233,,0,
14085,Minerva,,47.16317,27.56436,,0,
14086,Podu Ros,,47.14959,27.58607,,0,
14087,Sala Polivalenta,,47.15403,27.5872,,0,
14088,Hotel Europa,,47.16135,27.59412,,0,
14089,Blocuri Tomesti,,47.13224,27.69206,,0,
14090,Rond Tutora,,47.14349,27.64325,,0,
14091,Somaco,,47.14346,27.65062,,0,
14092,Boromir,,47.14177,27.65853,,0,
14093,Caretta,,47.13813,27.66775,,0,
14094,IVV,,47.13575,27.67407,,0,
14095,Facultativa,,47.13458,27.68245,,0,
14096,Rond Bucium,,47.11649,27.63226,,0,
14097,Plopii fara sot,,47.11917,27.6297,,0,
14098,Scoala generala nr. 2,,47.12095,27.62572,,0,
14099,Spitalul nr. 7,,47.13072,27.61391,,0,
14100,PECO Bucium,,47.13585,27.60851,,0,
14101,Bazar,,47.14744,27.58187,,0,
14102,Bazar,,47.14714,27.58204,,0,
14103,Podu de Piatra,,47.15624,27.57422,,0,
14104,Rond Canta,,47.17243,27.53697,,0,
14105,Pod Nicolina,,47.14346,27.58092,,0,
14106,Otelarie,,47.11688,27.56293,,0,
14107,Horpaz,,47.11067,27.55968,,0,
14108,La castele,,47.10047,27.55983,,0,
14109,Cartier Astoria,,47.09719,27.55912,,0,
14110,Frumoasa,,47.13638,27.58128,,0,
14111,Piata CUG (Sudului),,47.13491,27.57731,,0,
14112,Piata Dacia,,47.16893,27.5502,,0,
14113,Pasarela CFR,,47.1644,27.56585,,0,
15239,Blocuri Pacurari,,47.17064,27.57177,,0,
